{
  "cities": [
    {
      "city": "西宁市",
      "total_points": 514,
      "districts_count": 6,
      "districts": [
        {
          "name": "大通回族土族自治县",
          "count": 126
        },
        {
          "name": "城北区",
          "count": 124
        },
        {
          "name": "湟中区",
          "count": 94
        },
        {
          "name": "城西区",
          "count": 87
        },
        {
          "name": "城中区",
          "count": 55
        },
        {
          "name": "湟源县",
          "count": 28
        }
      ],
      "district_densities": [
        {
          "name": "城西区",
          "count": 87,
          "density": 4.5509,
          "area": 19.12
        },
        {
          "name": "城中区",
          "count": 55,
          "density": 1.2514,
          "area": 43.95
        },
        {
          "name": "城北区",
          "count": 124,
          "density": 0.8099,
          "area": 153.11
        },
        {
          "name": "湟源县",
          "count": 28,
          "density": 0.1062,
          "area": 263.56
        },
        {
          "name": "大通回族土族自治县",
          "count": 126,
          "density": 0.0841,
          "area": 1497.52
        },
        {
          "name": "湟中区",
          "count": 94,
          "density": 0.0772,
          "area": 1217.71
        }
      ],
      "blind_spots": [],
      "center": {
        "lat": 36.7193,
        "lng": 101.6414
      },
      "area_km2": 4084.58,
      "density_per_km2": 0.1258,
      "std_distance_km": 19.47,
      "std_ellipse": {
        "center": {
          "lat": 36.7193,
          "lng": 101.6414
        },
        "angle_deg": -84.42,
        "x_std_km": 17.95,
        "y_std_km": 20.08,
        "area_km2": 1132.07
      },
      "avg_nnd_km": 0.416,
      "kde": {
        "high_density_cells": 4,
        "low_density_cells": 375,
        "high_density_ratio": 1.0,
        "low_density_ratio": 93.8
      },
      "traffic_network_density": 0.171222719,
      "traffic_hub_influence": 0.142857143,
      "location_advantage": 0.029373501,
      "traffic_advantage": 0.077887171,
      "province": "青海省"
    },
    {
      "city": "海东市",
      "total_points": 414,
      "districts_count": 6,
      "districts": [
        {
          "name": "互助土族自治县",
          "count": 108
        },
        {
          "name": "民和回族土族自治县",
          "count": 96
        },
        {
          "name": "乐都区",
          "count": 79
        },
        {
          "name": "平安区",
          "count": 56
        },
        {
          "name": "化隆回族自治县",
          "count": 50
        },
        {
          "name": "循化撒拉族自治县",
          "count": 25
        }
      ],
      "district_densities": [
        {
          "name": "平安区",
          "count": 56,
          "density": 0.1215,
          "area": 460.9
        },
        {
          "name": "民和回族土族自治县",
          "count": 96,
          "density": 0.0546,
          "area": 1757.03
        },
        {
          "name": "乐都区",
          "count": 79,
          "density": 0.0393,
          "area": 2011.36
        },
        {
          "name": "互助土族自治县",
          "count": 108,
          "density": 0.0326,
          "area": 3314.75
        },
        {
          "name": "循化撒拉族自治县",
          "count": 25,
          "density": 0.0277,
          "area": 903.03
        },
        {
          "name": "化隆回族自治县",
          "count": 50,
          "density": 0.016,
          "area": 3117.97
        }
      ],
      "blind_spots": [],
      "center": {
        "lat": 36.408,
        "lng": 102.3149
      },
      "area_km2": 15981.33,
      "density_per_km2": 0.0259,
      "std_distance_km": 45.09,
      "std_ellipse": {
        "center": {
          "lat": 36.408,
          "lng": 102.3149
        },
        "angle_deg": -40.38,
        "x_std_km": 49.9,
        "y_std_km": 34.53,
        "area_km2": 5412.5
      },
      "avg_nnd_km": 1.131,
      "kde": {
        "high_density_cells": 3,
        "low_density_cells": 385,
        "high_density_ratio": 0.8,
        "low_density_ratio": 96.2
      },
      "traffic_network_density": 0.199680333,
      "traffic_hub_influence": 0.107142857,
      "location_advantage": 0.003569769,
      "traffic_advantage": 0.055178127,
      "province": "青海省"
    },
    {
      "province": "贵州省",
      "city": "贵阳市",
      "total_points": 977,
      "districts_count": 9,
      "districts": [
        {
          "name": "清镇市",
          "count": 196
        },
        {
          "name": "修文县",
          "count": 178
        },
        {
          "name": "花溪区",
          "count": 165
        },
        {
          "name": "开阳县",
          "count": 158
        },
        {
          "name": "白云区",
          "count": 96
        },
        {
          "name": "乌当区",
          "count": 90
        },
        {
          "name": "息烽县",
          "count": 89
        },
        {
          "name": "观山湖区",
          "count": 4
        },
        {
          "name": "云岩区",
          "count": 1
        }
      ],
      "district_densities": [
        {
          "name": "观山湖区",
          "count": 4,
          "density": 21.3088,
          "area": 0.19,
          "bounds": {
            "min_lng": 106.5246,
            "max_lng": 106.5288,
            "min_lat": 26.6817,
            "max_lat": 26.6856
          }
        },
        {
          "name": "花溪区",
          "count": 165,
          "density": 6.126,
          "area": 26.93,
          "bounds": {
            "min_lng": 106.6125,
            "max_lng": 106.6711,
            "min_lat": 26.4586,
            "max_lat": 26.5002
          }
        },
        {
          "name": "云岩区",
          "count": 1,
          "density": 1.0,
          "area": 1,
          "bounds": {
            "min_lng": 106.7114,
            "max_lng": 106.7114,
            "min_lat": 26.6669,
            "max_lat": 26.6669
          }
        },
        {
          "name": "白云区",
          "count": 96,
          "density": 0.58,
          "area": 165.51,
          "bounds": {
            "min_lng": 106.6004,
            "max_lng": 106.7428,
            "min_lat": 26.6819,
            "max_lat": 26.7872
          }
        },
        {
          "name": "清镇市",
          "count": 196,
          "density": 0.1899,
          "area": 1032.25,
          "bounds": {
            "min_lng": 106.168,
            "max_lng": 106.5067,
            "min_lat": 26.5456,
            "max_lat": 26.8212
          }
        },
        {
          "name": "乌当区",
          "count": 90,
          "density": 0.1313,
          "area": 685.38,
          "bounds": {
            "min_lng": 106.7341,
            "max_lng": 106.9829,
            "min_lat": 26.6427,
            "max_lat": 26.8921
          }
        },
        {
          "name": "修文县",
          "count": 178,
          "density": 0.1154,
          "area": 1542.97,
          "bounds": {
            "min_lng": 106.4307,
            "max_lng": 106.8689,
            "min_lat": 26.8105,
            "max_lat": 27.1299
          }
        },
        {
          "name": "息烽县",
          "count": 89,
          "density": 0.1143,
          "area": 778.39,
          "bounds": {
            "min_lng": 106.5204,
            "max_lng": 106.8449,
            "min_lat": 27.0282,
            "max_lat": 27.2461
          }
        },
        {
          "name": "开阳县",
          "count": 158,
          "density": 0.0696,
          "area": 2270.01,
          "bounds": {
            "min_lng": 106.7804,
            "max_lng": 107.2253,
            "min_lat": 26.8516,
            "max_lat": 27.3151
          }
        }
      ],
      "blind_spots": [],
      "center": {
        "lat": 26.7775,
        "lng": 106.6749
      },
      "area_km2": 9995.36,
      "density_per_km2": 0.0977,
      "std_distance_km": 31.69,
      "std_ellipse": {
        "center": {
          "lat": 26.7775,
          "lng": 106.6749
        },
        "angle_deg": 54.58,
        "x_std_km": 37.04,
        "y_std_km": 21.76,
        "area_km2": 2531.92
      },
      "avg_nnd_km": 0.285,
      "kde": {
        "high_density_cells": 4,
        "low_density_cells": 380,
        "high_density_ratio": 1.0,
        "low_density_ratio": 95.0
      },
      "traffic_network_density": 0.404147374,
      "traffic_hub_influence": 0.428571429,
      "location_advantage": 0.068553338,
      "traffic_advantage": 0.209873928
    },
    {
      "province": "贵州省",
      "city": "遵义市",
      "total_points": 2326,
      "districts_count": 14,
      "districts": [
        {
          "name": "桐梓县",
          "count": 241
        },
        {
          "name": "红花岗区",
          "count": 225
        },
        {
          "name": "仁怀市",
          "count": 217
        },
        {
          "name": "习水县",
          "count": 201
        },
        {
          "name": "播州区",
          "count": 197
        },
        {
          "name": "汇川区",
          "count": 196
        },
        {
          "name": "湄潭县",
          "count": 194
        },
        {
          "name": "赤水市",
          "count": 156
        },
        {
          "name": "凤冈县",
          "count": 155
        },
        {
          "name": "正安县",
          "count": 139
        },
        {
          "name": "绥阳县",
          "count": 132
        },
        {
          "name": "道真仡佬族苗族自治县",
          "count": 118
        },
        {
          "name": "务川仡佬族苗族自治县",
          "count": 112
        },
        {
          "name": "余庆县",
          "count": 43
        }
      ],
      "district_densities": [
        {
          "name": "仁怀市",
          "count": 217,
          "density": 0.3868,
          "area": 561.04,
          "bounds": {
            "min_lng": 106.2532,
            "max_lng": 106.4179,
            "min_lat": 27.7781,
            "max_lat": 28.0897
          }
        },
        {
          "name": "播州区",
          "count": 197,
          "density": 0.2784,
          "area": 707.57,
          "bounds": {
            "min_lng": 106.6624,
            "max_lng": 106.889,
            "min_lat": 27.3079,
            "max_lat": 27.5926
          }
        },
        {
          "name": "汇川区",
          "count": 196,
          "density": 0.1875,
          "area": 1045.51,
          "bounds": {
            "min_lng": 106.6582,
            "max_lng": 107.0026,
            "min_lat": 27.6974,
            "max_lat": 27.9749
          }
        },
        {
          "name": "红花岗区",
          "count": 225,
          "density": 0.1479,
          "area": 1520.92,
          "bounds": {
            "min_lng": 106.8013,
            "max_lng": 107.3508,
            "min_lat": 27.6105,
            "max_lat": 27.8634
          }
        },
        {
          "name": "湄潭县",
          "count": 194,
          "density": 0.1044,
          "area": 1858.29,
          "bounds": {
            "min_lng": 107.3836,
            "max_lng": 107.6156,
            "min_lat": 27.4196,
            "max_lat": 28.1517
          }
        },
        {
          "name": "赤水市",
          "count": 156,
          "density": 0.0872,
          "area": 1789.97,
          "bounds": {
            "min_lng": 105.6692,
            "max_lng": 106.1709,
            "min_lat": 28.3637,
            "max_lat": 28.6922
          }
        },
        {
          "name": "道真仡佬族苗族自治县",
          "count": 118,
          "density": 0.0847,
          "area": 1392.84,
          "bounds": {
            "min_lng": 107.4457,
            "max_lng": 107.7608,
            "min_lat": 28.6711,
            "max_lat": 29.0794
          }
        },
        {
          "name": "凤冈县",
          "count": 155,
          "density": 0.0794,
          "area": 1952.08,
          "bounds": {
            "min_lng": 107.571,
            "max_lng": 107.8351,
            "min_lat": 27.6119,
            "max_lat": 28.2886
          }
        },
        {
          "name": "余庆县",
          "count": 43,
          "density": 0.0533,
          "area": 806.61,
          "bounds": {
            "min_lng": 107.5104,
            "max_lng": 107.7438,
            "min_lat": 27.2956,
            "max_lat": 27.6104
          }
        },
        {
          "name": "绥阳县",
          "count": 132,
          "density": 0.0514,
          "area": 2568.75,
          "bounds": {
            "min_lng": 107.0194,
            "max_lng": 107.4662,
            "min_lat": 27.8793,
            "max_lat": 28.4059
          }
        },
        {
          "name": "正安县",
          "count": 139,
          "density": 0.0472,
          "area": 2945.5,
          "bounds": {
            "min_lng": 107.1709,
            "max_lng": 107.62,
            "min_lat": 28.2034,
            "max_lat": 28.8071
          }
        },
        {
          "name": "习水县",
          "count": 201,
          "density": 0.0446,
          "area": 4505.1,
          "bounds": {
            "min_lng": 105.9908,
            "max_lng": 106.6529,
            "min_lat": 28.1321,
            "max_lat": 28.7571
          }
        },
        {
          "name": "务川仡佬族苗族自治县",
          "count": 112,
          "density": 0.0403,
          "area": 2776.79,
          "bounds": {
            "min_lng": 107.6913,
            "max_lng": 108.1181,
            "min_lat": 28.3447,
            "max_lat": 28.944
          }
        },
        {
          "name": "桐梓县",
          "count": 241,
          "density": 0.0388,
          "area": 6212.46,
          "bounds": {
            "min_lng": 106.5046,
            "max_lng": 107.1968,
            "min_lat": 28.0137,
            "max_lat": 28.8372
          }
        }
      ],
      "blind_spots": [],
      "center": {
        "lat": 28.0544,
        "lng": 106.9768
      },
      "area_km2": 47664.56,
      "density_per_km2": 0.0488,
      "std_distance_km": 71.05,
      "std_ellipse": {
        "center": {
          "lat": 28.0544,
          "lng": 106.9768
        },
        "angle_deg": -0.34,
        "x_std_km": 78.98,
        "y_std_km": 62.41,
        "area_km2": 15486.66
      },
      "avg_nnd_km": 0.325,
      "kde": {
        "high_density_cells": 9,
        "low_density_cells": 379,
        "high_density_ratio": 2.2,
        "low_density_ratio": 94.8
      },
      "traffic_network_density": 0.406060151,
      "traffic_hub_influence": 0.071428571,
      "location_advantage": 0.019430641,
      "traffic_advantage": 0.077039287
    },
    {
      "province": "贵州省",
      "city": "安顺市",
      "total_points": 951,
      "districts_count": 6,
      "districts": [
        {
          "name": "西秀区",
          "count": 324
        },
        {
          "name": "镇宁布依族苗族自治县",
          "count": 150
        },
        {
          "name": "平坝区",
          "count": 144
        },
        {
          "name": "普定县",
          "count": 128
        },
        {
          "name": "关岭布依族苗族自治县",
          "count": 108
        },
        {
          "name": "紫云苗族布依族自治县",
          "count": 97
        }
      ],
      "district_densities": [
        {
          "name": "西秀区",
          "count": 324,
          "density": 0.2071,
          "area": 1564.27,
          "bounds": {
            "min_lng": 105.7748,
            "max_lng": 106.2452,
            "min_lat": 26.037,
            "max_lat": 26.3368
          }
        },
        {
          "name": "普定县",
          "count": 128,
          "density": 0.1637,
          "area": 781.75,
          "bounds": {
            "min_lng": 105.6308,
            "max_lng": 105.9035,
            "min_lat": 26.2088,
            "max_lat": 26.4674
          }
        },
        {
          "name": "平坝区",
          "count": 144,
          "density": 0.1271,
          "area": 1133.22,
          "bounds": {
            "min_lng": 106.0934,
            "max_lng": 106.497,
            "min_lat": 26.3104,
            "max_lat": 26.564
          }
        },
        {
          "name": "关岭布依族苗族自治县",
          "count": 108,
          "density": 0.0621,
          "area": 1739.96,
          "bounds": {
            "min_lng": 105.344,
            "max_lng": 105.7366,
            "min_lat": 25.6319,
            "max_lat": 26.0304
          }
        },
        {
          "name": "镇宁布依族苗族自治县",
          "count": 150,
          "density": 0.0573,
          "area": 2619.45,
          "bounds": {
            "min_lng": 105.604,
            "max_lng": 105.9648,
            "min_lat": 25.5026,
            "max_lat": 26.1559
          }
        },
        {
          "name": "紫云苗族布依族自治县",
          "count": 97,
          "density": 0.0464,
          "area": 2091.75,
          "bounds": {
            "min_lng": 105.9495,
            "max_lng": 106.3217,
            "min_lat": 25.4765,
            "max_lat": 25.9811
          }
        }
      ],
      "blind_spots": [],
      "center": {
        "lat": 26.1429,
        "lng": 105.9288
      },
      "area_km2": 13917.48,
      "density_per_km2": 0.0683,
      "std_distance_km": 33.86,
      "std_ellipse": {
        "center": {
          "lat": 26.1429,
          "lng": 105.9288
        },
        "angle_deg": 39.74,
        "x_std_km": 36.61,
        "y_std_km": 29.94,
        "area_km2": 3443.78
      },
      "avg_nnd_km": 0.311,
      "kde": {
        "high_density_cells": 5,
        "low_density_cells": 376,
        "high_density_ratio": 1.2,
        "low_density_ratio": 94.0
      },
      "traffic_network_density": 0.478107462,
      "traffic_hub_influence": 0.035714286,
      "location_advantage": 0.005680693,
      "traffic_advantage": 0.06635738
    },
    {
      "province": "贵州省",
      "city": "六盘水市",
      "total_points": 895,
      "districts_count": 4,
      "districts": [
        {
          "name": "盘州市",
          "count": 302
        },
        {
          "name": "钟山区",
          "count": 215
        },
        {
          "name": "六枝特区",
          "count": 191
        },
        {
          "name": "水城区",
          "count": 187
        }
      ],
      "district_densities": [
        {
          "name": "钟山区",
          "count": 215,
          "density": 0.371,
          "area": 579.51,
          "bounds": {
            "min_lng": 104.7963,
            "max_lng": 105.0307,
            "min_lat": 26.5463,
            "max_lat": 26.7699
          }
        },
        {
          "name": "六枝特区",
          "count": 191,
          "density": 0.1497,
          "area": 1275.48,
          "bounds": {
            "min_lng": 105.2246,
            "max_lng": 105.5475,
            "min_lat": 26.0801,
            "max_lat": 26.4362
          }
        },
        {
          "name": "盘州市",
          "count": 302,
          "density": 0.0829,
          "area": 3642.68,
          "bounds": {
            "min_lng": 104.4473,
            "max_lng": 104.8929,
            "min_lat": 25.4623,
            "max_lat": 26.1966
          }
        },
        {
          "name": "水城区",
          "count": 187,
          "density": 0.0647,
          "area": 2888.51,
          "bounds": {
            "min_lng": 104.6637,
            "max_lng": 105.1986,
            "min_lat": 26.0744,
            "max_lat": 26.5622
          }
        }
      ],
      "blind_spots": [],
      "center": {
        "lat": 26.2195,
        "lng": 104.8936
      },
      "area_km2": 15956.23,
      "density_per_km2": 0.0561,
      "std_distance_km": 50.86,
      "std_ellipse": {
        "center": {
          "lat": 26.2195,
          "lng": 104.8936
        },
        "angle_deg": 48.98,
        "x_std_km": 57.1,
        "y_std_km": 40.7,
        "area_km2": 7300.74
      },
      "avg_nnd_km": 0.359,
      "kde": {
        "high_density_cells": 4,
        "low_density_cells": 384,
        "high_density_ratio": 1.0,
        "low_density_ratio": 96.0
      },
      "traffic_network_density": 0.47054533,
      "traffic_hub_influence": 0.142857143,
      "location_advantage": 0.007787625,
      "traffic_advantage": 0.097861133
    },
    {
      "province": "贵州省",
      "city": "毕节市",
      "total_points": 2630,
      "districts_count": 8,
      "districts": [
        {
          "name": "七星关区",
          "count": 590
        },
        {
          "name": "威宁彝族回族苗族自治县",
          "count": 428
        },
        {
          "name": "大方县",
          "count": 365
        },
        {
          "name": "黔西市",
          "count": 307
        },
        {
          "name": "金沙县",
          "count": 280
        },
        {
          "name": "纳雍县",
          "count": 246
        },
        {
          "name": "织金县",
          "count": 239
        },
        {
          "name": "赫章县",
          "count": 175
        }
      ],
      "district_densities": [
        {
          "name": "黔西市",
          "count": 307,
          "density": 0.112,
          "area": 2740.17,
          "bounds": {
            "min_lng": 105.8648,
            "max_lng": 106.4113,
            "min_lat": 26.8213,
            "max_lat": 27.2766
          }
        },
        {
          "name": "七星关区",
          "count": 590,
          "density": 0.092,
          "area": 6413.74,
          "bounds": {
            "min_lng": 104.915,
            "max_lng": 105.8485,
            "min_lat": 27.0945,
            "max_lat": 27.72
          }
        },
        {
          "name": "纳雍县",
          "count": 246,
          "density": 0.0889,
          "area": 2767.56,
          "bounds": {
            "min_lng": 105.0494,
            "max_lng": 105.561,
            "min_lat": 26.5526,
            "max_lat": 27.0427
          }
        },
        {
          "name": "大方县",
          "count": 365,
          "density": 0.0727,
          "area": 5023.22,
          "bounds": {
            "min_lng": 105.3464,
            "max_lng": 106.0682,
            "min_lat": 26.9205,
            "max_lat": 27.5532
          }
        },
        {
          "name": "织金县",
          "count": 239,
          "density": 0.0643,
          "area": 3714.61,
          "bounds": {
            "min_lng": 105.3703,
            "max_lng": 106.1086,
            "min_lat": 26.4616,
            "max_lat": 26.9169
          }
        },
        {
          "name": "金沙县",
          "count": 280,
          "density": 0.056,
          "area": 5004.04,
          "bounds": {
            "min_lng": 105.8221,
            "max_lng": 106.6708,
            "min_lat": 27.1642,
            "max_lat": 27.7016
          }
        },
        {
          "name": "赫章县",
          "count": 175,
          "density": 0.0481,
          "area": 3639.68,
          "bounds": {
            "min_lng": 104.2678,
            "max_lng": 104.9607,
            "min_lat": 26.8719,
            "max_lat": 27.3493
          }
        },
        {
          "name": "威宁彝族回族苗族自治县",
          "count": 428,
          "density": 0.0477,
          "area": 8964.89,
          "bounds": {
            "min_lng": 103.7351,
            "max_lng": 104.7277,
            "min_lat": 26.5373,
            "max_lat": 27.3563
          }
        }
      ],
      "blind_spots": [],
      "center": {
        "lat": 27.0871,
        "lng": 105.3758
      },
      "area_km2": 40664.64,
      "density_per_km2": 0.0647,
      "std_distance_km": 72.01,
      "std_ellipse": {
        "center": {
          "lat": 27.0871,
          "lng": 105.3758
        },
        "angle_deg": 7.89,
        "x_std_km": 93.61,
        "y_std_km": 39.88,
        "area_km2": 11727.38
      },
      "avg_nnd_km": 0.322,
      "kde": {
        "high_density_cells": 2,
        "low_density_cells": 387,
        "high_density_ratio": 0.5,
        "low_density_ratio": 96.8
      },
      "traffic_network_density": 0.389815798,
      "traffic_hub_influence": 0.0,
      "location_advantage": 0.011003312,
      "traffic_advantage": 0.049481725
    },
    {
      "province": "贵州省",
      "city": "铜仁市",
      "total_points": 1272,
      "districts_count": 10,
      "districts": [
        {
          "name": "碧江区",
          "count": 227
        },
        {
          "name": "松桃苗族自治县",
          "count": 176
        },
        {
          "name": "思南县",
          "count": 168
        },
        {
          "name": "德江县",
          "count": 147
        },
        {
          "name": "印江土家族苗族自治县",
          "count": 130
        },
        {
          "name": "石阡县",
          "count": 107
        },
        {
          "name": "沿河土家族自治县",
          "count": 105
        },
        {
          "name": "万山区",
          "count": 80
        },
        {
          "name": "玉屏侗族自治县",
          "count": 75
        },
        {
          "name": "江口县",
          "count": 57
        }
      ],
      "district_densities": [
        {
          "name": "碧江区",
          "count": 227,
          "density": 0.2418,
          "area": 938.6,
          "bounds": {
            "min_lng": 109.0297,
            "max_lng": 109.4232,
            "min_lat": 27.6271,
            "max_lat": 27.845
          }
        },
        {
          "name": "万山区",
          "count": 80,
          "density": 0.1198,
          "area": 667.94,
          "bounds": {
            "min_lng": 109.0609,
            "max_lng": 109.3361,
            "min_lat": 27.4756,
            "max_lat": 27.6971
          }
        },
        {
          "name": "思南县",
          "count": 168,
          "density": 0.0834,
          "area": 2014.29,
          "bounds": {
            "min_lng": 107.945,
            "max_lng": 108.3532,
            "min_lat": 27.6268,
            "max_lat": 28.0781
          }
        },
        {
          "name": "玉屏侗族自治县",
          "count": 75,
          "density": 0.0767,
          "area": 978.21,
          "bounds": {
            "min_lng": 108.8536,
            "max_lng": 109.139,
            "min_lat": 27.1903,
            "max_lat": 27.5022
          }
        },
        {
          "name": "石阡县",
          "count": 107,
          "density": 0.0555,
          "area": 1926.86,
          "bounds": {
            "min_lng": 107.8206,
            "max_lng": 108.4626,
            "min_lat": 27.3728,
            "max_lat": 27.6466
          }
        },
        {
          "name": "印江土家族苗族自治县",
          "count": 130,
          "density": 0.0552,
          "area": 2353.9,
          "bounds": {
            "min_lng": 108.3372,
            "max_lng": 108.6941,
            "min_lat": 27.6362,
            "max_lat": 28.2404
          }
        },
        {
          "name": "德江县",
          "count": 147,
          "density": 0.0531,
          "area": 2769.45,
          "bounds": {
            "min_lng": 107.853,
            "max_lng": 108.4023,
            "min_lat": 28.0896,
            "max_lat": 28.5525
          }
        },
        {
          "name": "松桃苗族自治县",
          "count": 176,
          "density": 0.0443,
          "area": 3971.02,
          "bounds": {
            "min_lng": 108.6784,
            "max_lng": 109.3073,
            "min_lat": 27.8741,
            "max_lat": 28.4533
          }
        },
        {
          "name": "江口县",
          "count": 57,
          "density": 0.0357,
          "area": 1595.83,
          "bounds": {
            "min_lng": 108.5604,
            "max_lng": 108.9871,
            "min_lat": 27.5266,
            "max_lat": 27.8683
          }
        },
        {
          "name": "沿河土家族自治县",
          "count": 105,
          "density": 0.0312,
          "area": 3366.12,
          "bounds": {
            "min_lng": 108.144,
            "max_lng": 108.5783,
            "min_lat": 28.3005,
            "max_lat": 29.0144
          }
        }
      ],
      "blind_spots": [],
      "center": {
        "lat": 27.9092,
        "lng": 108.6714
      },
      "area_km2": 31940.33,
      "density_per_km2": 0.0398,
      "std_distance_km": 58.43,
      "std_ellipse": {
        "center": {
          "lat": 27.9092,
          "lng": 108.6714
        },
        "angle_deg": -20.2,
        "x_std_km": 65.73,
        "y_std_km": 49.42,
        "area_km2": 10204.93
      },
      "avg_nnd_km": 0.443,
      "kde": {
        "high_density_cells": 7,
        "low_density_cells": 383,
        "high_density_ratio": 1.8,
        "low_density_ratio": 95.8
      },
      "traffic_network_density": 0.46030763,
      "traffic_hub_influence": 0.071428571,
      "location_advantage": 0.006789647,
      "traffic_advantage": 0.075421913
    },
    {
      "province": "海南省",
      "city": "海口市",
      "total_points": 841,
      "districts_count": 4,
      "districts": [
        {
          "name": "秀英区",
          "count": 273
        },
        {
          "name": "美兰区",
          "count": 250
        },
        {
          "name": "琼山区",
          "count": 164
        },
        {
          "name": "龙华区",
          "count": 154
        }
      ],
      "district_densities": [
        {
          "name": "龙华区",
          "count": 154,
          "density": 0.649,
          "area": 237.3,
          "bounds": {
            "min_lng": 110.2732,
            "max_lng": 110.3709,
            "min_lat": 19.7661,
            "max_lat": 19.9751
          }
        },
        {
          "name": "美兰区",
          "count": 250,
          "density": 0.5186,
          "area": 482.1,
          "bounds": {
            "min_lng": 110.3688,
            "max_lng": 110.606,
            "min_lat": 19.8781,
            "max_lat": 20.053
          }
        },
        {
          "name": "秀英区",
          "count": 273,
          "density": 0.4193,
          "area": 651.13,
          "bounds": {
            "min_lng": 110.1503,
            "max_lng": 110.3216,
            "min_lat": 19.7161,
            "max_lat": 20.0431
          }
        },
        {
          "name": "琼山区",
          "count": 164,
          "density": 0.1255,
          "area": 1307.2,
          "bounds": {
            "min_lng": 110.3459,
            "max_lng": 110.623,
            "min_lat": 19.6077,
            "max_lat": 20.0136
          }
        }
      ],
      "blind_spots": [],
      "center": {
        "lat": 19.9609,
        "lng": 110.3398
      },
      "area_km2": 2446.56,
      "density_per_km2": 0.3437,
      "std_distance_km": 13.76,
      "std_ellipse": {
        "center": {
          "lat": 19.9609,
          "lng": 110.3398
        },
        "angle_deg": -15.36,
        "x_std_km": 16.65,
        "y_std_km": 10.02,
        "area_km2": 524.17
      },
      "avg_nnd_km": 0.192,
      "kde": {
        "high_density_cells": 3,
        "low_density_cells": 376,
        "high_density_ratio": 0.8,
        "low_density_ratio": 94.0
      },
      "traffic_network_density": 0.65,
      "traffic_hub_influence": 0.55,
      "location_advantage": 0.5,
      "traffic_advantage": 0.57
    },
    {
      "province": "海南省",
      "city": "三亚市",
      "total_points": 554,
      "districts_count": 4,
      "districts": [
        {
          "name": "吉阳区",
          "count": 264
        },
        {
          "name": "天涯区",
          "count": 159
        },
        {
          "name": "崖州区",
          "count": 69
        },
        {
          "name": "海棠区",
          "count": 62
        }
      ],
      "district_densities": [
        {
          "name": "吉阳区",
          "count": 264,
          "density": 0.8481,
          "area": 311.3,
          "bounds": {
            "min_lng": 109.4903,
            "max_lng": 109.6841,
            "min_lat": 18.2217,
            "max_lat": 18.3585
          }
        },
        {
          "name": "崖州区",
          "count": 69,
          "density": 0.8095,
          "area": 85.24,
          "bounds": {
            "min_lng": 109.0124,
            "max_lng": 109.1866,
            "min_lat": 18.3327,
            "max_lat": 18.3744
          }
        },
        {
          "name": "海棠区",
          "count": 62,
          "density": 0.2862,
          "area": 216.6,
          "bounds": {
            "min_lng": 109.6797,
            "max_lng": 109.7898,
            "min_lat": 18.2889,
            "max_lat": 18.4567
          }
        },
        {
          "name": "天涯区",
          "count": 159,
          "density": 0.2317,
          "area": 686.21,
          "bounds": {
            "min_lng": 109.2489,
            "max_lng": 109.5056,
            "min_lat": 18.2367,
            "max_lat": 18.4645
          }
        }
      ],
      "blind_spots": [],
      "center": {
        "lat": 18.3115,
        "lng": 109.4944
      },
      "area_km2": 2214.91,
      "density_per_km2": 0.2501,
      "std_distance_km": 17.66,
      "std_ellipse": {
        "center": {
          "lat": 18.3115,
          "lng": 109.4944
        },
        "angle_deg": -2.73,
        "x_std_km": 24.0,
        "y_std_km": 7.03,
        "area_km2": 529.8
      },
      "avg_nnd_km": 0.222,
      "kde": {
        "high_density_cells": 7,
        "low_density_cells": 361,
        "high_density_ratio": 1.8,
        "low_density_ratio": 90.2
      },
      "traffic_network_density": 0.5,
      "traffic_hub_influence": 0.45,
      "location_advantage": 0.45,
      "traffic_advantage": 0.47
    },
    {
      "province": "海南省",
      "city": "儋州市",
      "total_points": 281,
      "districts_count": 1,
      "districts": [
        {
          "name": "儋州市",
          "count": 281
        }
      ],
      "district_densities": [
        {
          "name": "儋州市",
          "count": 281,
          "density": 0.0808,
          "area": 3479.69,
          "bounds": {
            "min_lng": 108.9495,
            "max_lng": 109.6784,
            "min_lat": 19.4092,
            "max_lat": 19.819
          }
        }
      ],
      "blind_spots": [],
      "center": {
        "lat": 19.5933,
        "lng": 109.426
      },
      "area_km2": 3479.69,
      "density_per_km2": 0.0808,
      "std_distance_km": 22.09,
      "std_ellipse": {
        "center": {
          "lat": 19.5933,
          "lng": 109.426
        },
        "angle_deg": -25.91,
        "x_std_km": 28.22,
        "y_std_km": 12.91,
        "area_km2": 1143.93
      },
      "avg_nnd_km": 0.411,
      "kde": {
        "high_density_cells": 2,
        "low_density_cells": 375,
        "high_density_ratio": 0.5,
        "low_density_ratio": 93.8
      },
      "traffic_network_density": 0.35,
      "traffic_hub_influence": 0.2,
      "location_advantage": 0.15,
      "traffic_advantage": 0.23
    },
    {
      "province": "西藏自治区",
      "city": "拉萨市",
      "total_points": 442,
      "districts_count": 8,
      "districts": [
        {
          "name": "城关区",
          "count": 209
        },
        {
          "name": "堆龙德庆区",
          "count": 165
        },
        {
          "name": "曲水县",
          "count": 13
        },
        {
          "name": "林周县",
          "count": 12
        },
        {
          "name": "达孜区",
          "count": 12
        },
        {
          "name": "当雄县",
          "count": 11
        },
        {
          "name": "尼木县",
          "count": 10
        },
        {
          "name": "墨竹工卡县",
          "count": 10
        }
      ],
      "district_densities": [
        {
          "name": "城关区",
          "count": 209,
          "density": 1.4541,
          "area": 143.74,
          "bounds": {
            "min_lng": 91.0567,
            "max_lng": 91.2587,
            "min_lat": 29.6312,
            "max_lat": 29.6974
          }
        },
        {
          "name": "堆龙德庆区",
          "count": 165,
          "density": 0.1413,
          "area": 1168.05,
          "bounds": {
            "min_lng": 90.7133,
            "max_lng": 91.0189,
            "min_lat": 29.6088,
            "max_lat": 29.9645
          }
        },
        {
          "name": "达孜区",
          "count": 12,
          "density": 0.0236,
          "area": 508.49,
          "bounds": {
            "min_lng": 91.2722,
            "max_lng": 91.5532,
            "min_lat": 29.6684,
            "max_lat": 29.8369
          }
        },
        {
          "name": "曲水县",
          "count": 13,
          "density": 0.0086,
          "area": 1503.65,
          "bounds": {
            "min_lng": 90.5363,
            "max_lng": 90.997,
            "min_lat": 29.2581,
            "max_lat": 29.5612
          }
        },
        {
          "name": "尼木县",
          "count": 10,
          "density": 0.0076,
          "area": 1323.51,
          "bounds": {
            "min_lng": 89.9786,
            "max_lng": 90.2827,
            "min_lat": 29.3305,
            "max_lat": 29.7348
          }
        },
        {
          "name": "林周县",
          "count": 12,
          "density": 0.0047,
          "area": 2574.24,
          "bounds": {
            "min_lng": 91.0334,
            "max_lng": 91.5183,
            "min_lat": 29.8054,
            "max_lat": 30.3011
          }
        },
        {
          "name": "墨竹工卡县",
          "count": 10,
          "density": 0.004,
          "area": 2504.18,
          "bounds": {
            "min_lng": 91.6639,
            "max_lng": 92.2377,
            "min_lat": 29.692,
            "max_lat": 30.0991
          }
        },
        {
          "name": "当雄县",
          "count": 11,
          "density": 0.0012,
          "area": 9399.64,
          "bounds": {
            "min_lng": 90.3621,
            "max_lng": 91.4012,
            "min_lat": 29.8835,
            "max_lat": 30.732
          }
        }
      ],
      "blind_spots": [
        {
          "district": "当雄县",
          "count": 11,
          "density": 0.0012,
          "reason": "密度仅全市平均9.5%"
        }
      ],
      "center": {
        "lat": 29.6806,
        "lng": 91.0708
      },
      "area_km2": 35766.74,
      "density_per_km2": 0.0124,
      "std_distance_km": 28.11,
      "std_ellipse": {
        "center": {
          "lat": 29.6806,
          "lng": 91.0708
        },
        "angle_deg": 20.64,
        "x_std_km": 33.0,
        "y_std_km": 21.57,
        "area_km2": 2235.88
      },
      "avg_nnd_km": 1.236,
      "kde": {
        "high_density_cells": 2,
        "low_density_cells": 396,
        "high_density_ratio": 0.5,
        "low_density_ratio": 99.0
      },
      "traffic_network_density": 0.45,
      "traffic_hub_influence": 0.4,
      "location_advantage": 0.3,
      "traffic_advantage": 0.38
    },
    {
      "province": "西藏自治区",
      "city": "日喀则市",
      "total_points": 259,
      "districts_count": 18,
      "districts": [
        {
          "name": "桑珠孜区",
          "count": 66
        },
        {
          "name": "江孜县",
          "count": 24
        },
        {
          "name": "南木林县",
          "count": 19
        },
        {
          "name": "谢通门县",
          "count": 18
        },
        {
          "name": "昂仁县",
          "count": 16
        },
        {
          "name": "拉孜县",
          "count": 14
        },
        {
          "name": "仲巴县",
          "count": 13
        },
        {
          "name": "定日县",
          "count": 13
        },
        {
          "name": "白朗县",
          "count": 12
        },
        {
          "name": "定结县",
          "count": 10
        },
        {
          "name": "萨迦县",
          "count": 10
        },
        {
          "name": "仁布县",
          "count": 10
        },
        {
          "name": "康马县",
          "count": 9
        },
        {
          "name": "萨嘎县",
          "count": 7
        },
        {
          "name": "吉隆县",
          "count": 5
        },
        {
          "name": "聂拉木县",
          "count": 5
        },
        {
          "name": "岗巴县",
          "count": 4
        },
        {
          "name": "亚东县",
          "count": 4
        }
      ],
      "district_densities": [
        {
          "name": "桑珠孜区",
          "count": 66,
          "density": 0.0253,
          "area": 2613.29,
          "bounds": {
            "min_lng": 88.7016,
            "max_lng": 89.5548,
            "min_lat": 29.0711,
            "max_lat": 29.3551
          }
        },
        {
          "name": "仁布县",
          "count": 10,
          "density": 0.0143,
          "area": 697.89,
          "bounds": {
            "min_lng": 89.7661,
            "max_lng": 90.1567,
            "min_lat": 29.1287,
            "max_lat": 29.2943
          }
        },
        {
          "name": "拉孜县",
          "count": 14,
          "density": 0.0054,
          "area": 2610.35,
          "bounds": {
            "min_lng": 87.5839,
            "max_lng": 88.1818,
            "min_lat": 28.9713,
            "max_lat": 29.3757
          }
        },
        {
          "name": "白朗县",
          "count": 12,
          "density": 0.005,
          "area": 2420.24,
          "bounds": {
            "min_lng": 88.9638,
            "max_lng": 89.3625,
            "min_lat": 28.6447,
            "max_lat": 29.206
          }
        },
        {
          "name": "江孜县",
          "count": 24,
          "density": 0.0047,
          "area": 5068.15,
          "bounds": {
            "min_lng": 89.207,
            "max_lng": 90.0469,
            "min_lat": 28.5824,
            "max_lat": 29.14
          }
        },
        {
          "name": "岗巴县",
          "count": 4,
          "density": 0.0042,
          "area": 953.87,
          "bounds": {
            "min_lng": 88.3187,
            "max_lng": 88.6333,
            "min_lat": 28.1977,
            "max_lat": 28.4763
          }
        },
        {
          "name": "南木林县",
          "count": 19,
          "density": 0.0039,
          "area": 4918.52,
          "bounds": {
            "min_lng": 89.0158,
            "max_lng": 89.6789,
            "min_lat": 29.3854,
            "max_lat": 30.0757
          }
        },
        {
          "name": "定结县",
          "count": 10,
          "density": 0.0029,
          "area": 3493.93,
          "bounds": {
            "min_lng": 87.5979,
            "max_lng": 88.2216,
            "min_lat": 28.0082,
            "max_lat": 28.5228
          }
        },
        {
          "name": "亚东县",
          "count": 4,
          "density": 0.0028,
          "area": 1430.5,
          "bounds": {
            "min_lng": 88.9656,
            "max_lng": 89.2347,
            "min_lat": 27.6867,
            "max_lat": 28.173
          }
        },
        {
          "name": "康马县",
          "count": 9,
          "density": 0.0026,
          "area": 3454.77,
          "bounds": {
            "min_lng": 89.3723,
            "max_lng": 89.9431,
            "min_lat": 28.2616,
            "max_lat": 28.8191
          }
        },
        {
          "name": "聂拉木县",
          "count": 5,
          "density": 0.0015,
          "area": 3408.69,
          "bounds": {
            "min_lng": 85.7928,
            "max_lng": 86.4161,
            "min_lat": 28.3991,
            "max_lat": 28.9033
          }
        },
        {
          "name": "萨迦县",
          "count": 10,
          "density": 0.0015,
          "area": 6455.97,
          "bounds": {
            "min_lng": 87.8575,
            "max_lng": 88.8098,
            "min_lat": 28.5834,
            "max_lat": 29.2098
          }
        },
        {
          "name": "谢通门县",
          "count": 18,
          "density": 0.0013,
          "area": 14388.73,
          "bounds": {
            "min_lng": 87.4171,
            "max_lng": 88.8989,
            "min_lat": 29.3276,
            "max_lat": 30.2321
          }
        },
        {
          "name": "定日县",
          "count": 13,
          "density": 0.0012,
          "area": 10934.99,
          "bounds": {
            "min_lng": 86.6178,
            "max_lng": 87.6522,
            "min_lat": 28.1148,
            "max_lat": 29.0885
          }
        },
        {
          "name": "吉隆县",
          "count": 5,
          "density": 0.001,
          "area": 5175.62,
          "bounds": {
            "min_lng": 85.2802,
            "max_lng": 85.8859,
            "min_lat": 28.3906,
            "max_lat": 29.1774
          }
        },
        {
          "name": "萨嘎县",
          "count": 7,
          "density": 0.0009,
          "area": 7457.03,
          "bounds": {
            "min_lng": 84.4389,
            "max_lng": 86.2354,
            "min_lat": 29.2077,
            "max_lat": 29.593
          }
        },
        {
          "name": "昂仁县",
          "count": 16,
          "density": 0.0006,
          "area": 27162.46,
          "bounds": {
            "min_lng": 85.9548,
            "max_lng": 87.6997,
            "min_lat": 29.1802,
            "max_lat": 30.6305
          }
        },
        {
          "name": "仲巴县",
          "count": 13,
          "density": 0.0005,
          "area": 24953.02,
          "bounds": {
            "min_lng": 83.1872,
            "max_lng": 84.5034,
            "min_lat": 29.5279,
            "max_lat": 31.3034
          }
        }
      ],
      "blind_spots": [],
      "center": {
        "lat": 29.1926,
        "lng": 88.2134
      },
      "area_km2": 272036.62,
      "density_per_km2": 0.001,
      "std_distance_km": 159.79,
      "std_ellipse": {
        "center": {
          "lat": 29.1926,
          "lng": 88.2134
        },
        "angle_deg": -6.87,
        "x_std_km": 211.42,
        "y_std_km": 80.53,
        "area_km2": 53491.57
      },
      "avg_nnd_km": 10.94,
      "kde": {
        "high_density_cells": 1,
        "low_density_cells": 394,
        "high_density_ratio": 0.2,
        "low_density_ratio": 98.5
      },
      "traffic_network_density": 0.2,
      "traffic_hub_influence": 0.1,
      "location_advantage": 0.08,
      "traffic_advantage": 0.13
    },
    {
      "province": "西藏自治区",
      "city": "山南市",
      "total_points": 101,
      "districts_count": 12,
      "districts": [
        {
          "name": "乃东区",
          "count": 31
        },
        {
          "name": "加查县",
          "count": 13
        },
        {
          "name": "贡嘎县",
          "count": 12
        },
        {
          "name": "浪卡子县",
          "count": 8
        },
        {
          "name": "洛扎县",
          "count": 6
        },
        {
          "name": "措美县",
          "count": 6
        },
        {
          "name": "隆子县",
          "count": 6
        },
        {
          "name": "扎囊县",
          "count": 5
        },
        {
          "name": "桑日县",
          "count": 4
        },
        {
          "name": "曲松县",
          "count": 4
        },
        {
          "name": "琼结县",
          "count": 3
        },
        {
          "name": "错那市",
          "count": 3
        }
      ],
      "district_densities": [
        {
          "name": "乃东区",
          "count": 31,
          "density": 0.0336,
          "area": 922.86,
          "bounds": {
            "min_lng": 91.6885,
            "max_lng": 91.8796,
            "min_lat": 28.9742,
            "max_lat": 29.4217
          }
        },
        {
          "name": "扎囊县",
          "count": 5,
          "density": 0.012,
          "area": 414.95,
          "bounds": {
            "min_lng": 91.306,
            "max_lng": 91.5069,
            "min_lat": 29.1317,
            "max_lat": 29.3231
          }
        },
        {
          "name": "加查县",
          "count": 13,
          "density": 0.011,
          "area": 1178.47,
          "bounds": {
            "min_lng": 92.4771,
            "max_lng": 92.7174,
            "min_lat": 28.9886,
            "max_lat": 29.4427
          }
        },
        {
          "name": "琼结县",
          "count": 3,
          "density": 0.0102,
          "area": 294.57,
          "bounds": {
            "min_lng": 91.55,
            "max_lng": 91.7069,
            "min_lat": 28.9706,
            "max_lat": 29.1444
          }
        },
        {
          "name": "曲松县",
          "count": 4,
          "density": 0.0091,
          "area": 438.59,
          "bounds": {
            "min_lng": 92.1153,
            "max_lng": 92.2248,
            "min_lat": 28.8542,
            "max_lat": 29.2245
          }
        },
        {
          "name": "贡嘎县",
          "count": 12,
          "density": 0.0087,
          "area": 1382.26,
          "bounds": {
            "min_lng": 90.6906,
            "max_lng": 91.1383,
            "min_lat": 29.0681,
            "max_lat": 29.3544
          }
        },
        {
          "name": "隆子县",
          "count": 6,
          "density": 0.0061,
          "area": 984.89,
          "bounds": {
            "min_lng": 92.0867,
            "max_lng": 92.557,
            "min_lat": 28.4071,
            "max_lat": 28.5998
          }
        },
        {
          "name": "错那市",
          "count": 3,
          "density": 0.0054,
          "area": 558.45,
          "bounds": {
            "min_lng": 91.7654,
            "max_lng": 91.9606,
            "min_lat": 27.9909,
            "max_lat": 28.2531
          }
        },
        {
          "name": "桑日县",
          "count": 4,
          "density": 0.005,
          "area": 806.99,
          "bounds": {
            "min_lng": 92.0137,
            "max_lng": 92.3597,
            "min_lat": 29.2221,
            "max_lat": 29.4385
          }
        },
        {
          "name": "洛扎县",
          "count": 6,
          "density": 0.0032,
          "area": 1854.96,
          "bounds": {
            "min_lng": 90.6532,
            "max_lng": 91.2737,
            "min_lat": 28.1111,
            "max_lat": 28.3855
          }
        },
        {
          "name": "措美县",
          "count": 6,
          "density": 0.0025,
          "area": 2364.23,
          "bounds": {
            "min_lng": 91.2437,
            "max_lng": 91.8651,
            "min_lat": 28.354,
            "max_lat": 28.7041
          }
        },
        {
          "name": "浪卡子县",
          "count": 8,
          "density": 0.002,
          "area": 3972.27,
          "bounds": {
            "min_lng": 90.1989,
            "max_lng": 91.0574,
            "min_lat": 28.6044,
            "max_lat": 29.0318
          }
        }
      ],
      "blind_spots": [],
      "center": {
        "lat": 29.0053,
        "lng": 91.6669
      },
      "area_km2": 39535.81,
      "density_per_km2": 0.0026,
      "std_distance_km": 72.76,
      "std_ellipse": {
        "center": {
          "lat": 29.0053,
          "lng": 91.6669
        },
        "angle_deg": 5.73,
        "x_std_km": 85.27,
        "y_std_km": 57.64,
        "area_km2": 15440.56
      },
      "avg_nnd_km": 7.451,
      "kde": {
        "high_density_cells": 1,
        "low_density_cells": 393,
        "high_density_ratio": 0.2,
        "low_density_ratio": 98.2
      },
      "traffic_network_density": 0.15,
      "traffic_hub_influence": 0.05,
      "location_advantage": 0.04,
      "traffic_advantage": 0.08
    },
    {
      "province": "西藏自治区",
      "city": "林芝市",
      "total_points": 125,
      "districts_count": 7,
      "districts": [
        {
          "name": "巴宜区",
          "count": 66
        },
        {
          "name": "波密县",
          "count": 21
        },
        {
          "name": "米林市",
          "count": 11
        },
        {
          "name": "察隅县",
          "count": 9
        },
        {
          "name": "工布江达县",
          "count": 8
        },
        {
          "name": "朗县",
          "count": 7
        },
        {
          "name": "墨脱县",
          "count": 3
        }
      ],
      "district_densities": [
        {
          "name": "墨脱县",
          "count": 3,
          "density": 15.1023,
          "area": 0.2,
          "bounds": {
            "min_lng": 95.3261,
            "max_lng": 95.3315,
            "min_lat": 29.3212,
            "max_lat": 29.3246
          }
        },
        {
          "name": "朗县",
          "count": 7,
          "density": 0.0304,
          "area": 230.41,
          "bounds": {
            "min_lng": 92.835,
            "max_lng": 93.191,
            "min_lat": 29.0069,
            "max_lat": 29.0668
          }
        },
        {
          "name": "巴宜区",
          "count": 66,
          "density": 0.0213,
          "area": 3098.64,
          "bounds": {
            "min_lng": 93.8512,
            "max_lng": 94.7348,
            "min_lat": 29.4684,
            "max_lat": 29.7947
          }
        },
        {
          "name": "米林市",
          "count": 11,
          "density": 0.0023,
          "area": 4863.57,
          "bounds": {
            "min_lng": 93.7031,
            "max_lng": 94.8833,
            "min_lat": 29.1337,
            "max_lat": 29.5159
          }
        },
        {
          "name": "工布江达县",
          "count": 8,
          "density": 0.0022,
          "area": 3649.74,
          "bounds": {
            "min_lng": 92.9033,
            "max_lng": 93.882,
            "min_lat": 29.8604,
            "max_lat": 30.2086
          }
        },
        {
          "name": "波密县",
          "count": 21,
          "density": 0.0022,
          "area": 9723.03,
          "bounds": {
            "min_lng": 94.8173,
            "max_lng": 96.2481,
            "min_lat": 29.6326,
            "max_lat": 30.2667
          }
        },
        {
          "name": "察隅县",
          "count": 9,
          "density": 0.0008,
          "area": 10676.2,
          "bounds": {
            "min_lng": 97.0187,
            "max_lng": 98.4676,
            "min_lat": 28.4656,
            "max_lat": 29.145
          }
        }
      ],
      "blind_spots": [],
      "center": {
        "lat": 29.5717,
        "lng": 94.7096
      },
      "area_km2": 109082.25,
      "density_per_km2": 0.0011,
      "std_distance_km": 112.82,
      "std_ellipse": {
        "center": {
          "lat": 29.5717,
          "lng": 94.7096
        },
        "angle_deg": -6.88,
        "x_std_km": 150.45,
        "y_std_km": 51.76,
        "area_km2": 24467.01
      },
      "avg_nnd_km": 5.437,
      "kde": {
        "high_density_cells": 2,
        "low_density_cells": 394,
        "high_density_ratio": 0.5,
        "low_density_ratio": 98.5
      },
      "traffic_network_density": 0.18,
      "traffic_hub_influence": 0.08,
      "location_advantage": 0.06,
      "traffic_advantage": 0.11
    },
    {
      "province": "西藏自治区",
      "city": "昌都市",
      "total_points": 200,
      "districts_count": 11,
      "districts": [
        {
          "name": "卡若区",
          "count": 50
        },
        {
          "name": "丁青县",
          "count": 20
        },
        {
          "name": "察雅县",
          "count": 20
        },
        {
          "name": "八宿县",
          "count": 17
        },
        {
          "name": "芒康县",
          "count": 17
        },
        {
          "name": "左贡县",
          "count": 16
        },
        {
          "name": "边坝县",
          "count": 13
        },
        {
          "name": "洛隆县",
          "count": 13
        },
        {
          "name": "江达县",
          "count": 13
        },
        {
          "name": "贡觉县",
          "count": 11
        },
        {
          "name": "类乌齐县",
          "count": 10
        }
      ],
      "district_densities": [
        {
          "name": "卡若区",
          "count": 50,
          "density": 0.0068,
          "area": 7351.99,
          "bounds": {
            "min_lng": 96.8086,
            "max_lng": 97.4292,
            "min_lat": 30.9504,
            "max_lat": 32.0706
          }
        },
        {
          "name": "贡觉县",
          "count": 11,
          "density": 0.0036,
          "area": 3090.42,
          "bounds": {
            "min_lng": 98.272,
            "max_lng": 98.9131,
            "min_lat": 30.4038,
            "max_lat": 30.8569
          }
        },
        {
          "name": "洛隆县",
          "count": 13,
          "density": 0.0034,
          "area": 3836.97,
          "bounds": {
            "min_lng": 95.462,
            "max_lng": 96.3553,
            "min_lat": 30.5478,
            "max_lat": 30.9522
          }
        },
        {
          "name": "察雅县",
          "count": 20,
          "density": 0.003,
          "area": 6769.41,
          "bounds": {
            "min_lng": 97.3465,
            "max_lng": 98.2084,
            "min_lat": 30.2988,
            "max_lat": 31.037
          }
        },
        {
          "name": "边坝县",
          "count": 13,
          "density": 0.0026,
          "area": 4976.23,
          "bounds": {
            "min_lng": 94.3242,
            "max_lng": 95.2,
            "min_lat": 30.7221,
            "max_lat": 31.2579
          }
        },
        {
          "name": "类乌齐县",
          "count": 10,
          "density": 0.0026,
          "area": 3836.14,
          "bounds": {
            "min_lng": 96.1756,
            "max_lng": 96.8003,
            "min_lat": 31.1124,
            "max_lat": 31.6941
          }
        },
        {
          "name": "丁青县",
          "count": 20,
          "density": 0.0017,
          "area": 11946.31,
          "bounds": {
            "min_lng": 94.7841,
            "max_lng": 95.8058,
            "min_lat": 31.2205,
            "max_lat": 32.3303
          }
        },
        {
          "name": "八宿县",
          "count": 17,
          "density": 0.0016,
          "area": 10575.94,
          "bounds": {
            "min_lng": 96.4866,
            "max_lng": 97.2913,
            "min_lat": 29.5027,
            "max_lat": 30.7322
          }
        },
        {
          "name": "芒康县",
          "count": 17,
          "density": 0.0016,
          "area": 10939.34,
          "bounds": {
            "min_lng": 98.2846,
            "max_lng": 99.0588,
            "min_lat": 28.8621,
            "max_lat": 30.1762
          }
        },
        {
          "name": "江达县",
          "count": 13,
          "density": 0.0014,
          "area": 9018.92,
          "bounds": {
            "min_lng": 97.5679,
            "max_lng": 98.5978,
            "min_lat": 31.1714,
            "max_lat": 32.002
          }
        },
        {
          "name": "左贡县",
          "count": 16,
          "density": 0.0011,
          "area": 15014.14,
          "bounds": {
            "min_lng": 97.418,
            "max_lng": 98.4658,
            "min_lat": 28.8242,
            "max_lat": 30.1572
          }
        }
      ],
      "blind_spots": [],
      "center": {
        "lat": 30.7806,
        "lng": 97.069
      },
      "area_km2": 176323.67,
      "density_per_km2": 0.0011,
      "std_distance_km": 133.68,
      "std_ellipse": {
        "center": {
          "lat": 30.7806,
          "lng": 97.069
        },
        "angle_deg": -21.56,
        "x_std_km": 163.08,
        "y_std_km": 90.8,
        "area_km2": 46521.65
      },
      "avg_nnd_km": 9.787,
      "kde": {
        "high_density_cells": 1,
        "low_density_cells": 391,
        "high_density_ratio": 0.2,
        "low_density_ratio": 97.8
      },
      "traffic_network_density": 0.15,
      "traffic_hub_influence": 0.05,
      "location_advantage": 0.05,
      "traffic_advantage": 0.08
    },
    {
      "province": "西藏自治区",
      "city": "那曲市",
      "total_points": 111,
      "districts_count": 11,
      "districts": [
        {
          "name": "色尼区",
          "count": 28
        },
        {
          "name": "尼玛县",
          "count": 12
        },
        {
          "name": "索县",
          "count": 11
        },
        {
          "name": "班戈县",
          "count": 11
        },
        {
          "name": "巴青县",
          "count": 11
        },
        {
          "name": "比如县",
          "count": 10
        },
        {
          "name": "聂荣县",
          "count": 8
        },
        {
          "name": "安多县",
          "count": 7
        },
        {
          "name": "嘉黎县",
          "count": 7
        },
        {
          "name": "双湖县",
          "count": 5
        },
        {
          "name": "申扎县",
          "count": 1
        }
      ],
      "district_densities": [
        {
          "name": "申扎县",
          "count": 1,
          "density": 1.0,
          "area": 1,
          "bounds": {
            "min_lng": 89.1009,
            "max_lng": 89.1009,
            "min_lat": 30.7248,
            "max_lat": 30.7248
          }
        },
        {
          "name": "色尼区",
          "count": 28,
          "density": 0.002,
          "area": 14004.44,
          "bounds": {
            "min_lng": 91.4167,
            "max_lng": 92.8357,
            "min_lat": 30.8235,
            "max_lat": 31.759
          }
        },
        {
          "name": "比如县",
          "count": 10,
          "density": 0.0018,
          "area": 5552.36,
          "bounds": {
            "min_lng": 93.1109,
            "max_lng": 94.0419,
            "min_lat": 31.1942,
            "max_lat": 31.7599
          }
        },
        {
          "name": "巴青县",
          "count": 11,
          "density": 0.0017,
          "area": 6539.52,
          "bounds": {
            "min_lng": 93.4206,
            "max_lng": 94.4373,
            "min_lat": 31.8389,
            "max_lat": 32.4529
          }
        },
        {
          "name": "索县",
          "count": 11,
          "density": 0.0015,
          "area": 7562.34,
          "bounds": {
            "min_lng": 93.7916,
            "max_lng": 94.915,
            "min_lat": 31.2555,
            "max_lat": 31.8949
          }
        },
        {
          "name": "嘉黎县",
          "count": 7,
          "density": 0.0011,
          "area": 6318.21,
          "bounds": {
            "min_lng": 92.3658,
            "max_lng": 93.3838,
            "min_lat": 30.491,
            "max_lat": 31.0754
          }
        },
        {
          "name": "安多县",
          "count": 7,
          "density": 0.0009,
          "area": 8213.0,
          "bounds": {
            "min_lng": 90.6166,
            "max_lng": 92.1956,
            "min_lat": 31.9717,
            "max_lat": 32.4692
          }
        },
        {
          "name": "聂荣县",
          "count": 8,
          "density": 0.0009,
          "area": 8573.32,
          "bounds": {
            "min_lng": 92.0703,
            "max_lng": 93.3336,
            "min_lat": 31.7435,
            "max_lat": 32.3917
          }
        },
        {
          "name": "班戈县",
          "count": 11,
          "density": 0.0006,
          "area": 17343.86,
          "bounds": {
            "min_lng": 89.751,
            "max_lng": 91.0601,
            "min_lat": 30.5206,
            "max_lat": 31.7735
          }
        },
        {
          "name": "尼玛县",
          "count": 12,
          "density": 0.0002,
          "area": 57203.68,
          "bounds": {
            "min_lng": 85.3949,
            "max_lng": 87.7889,
            "min_lat": 30.7223,
            "max_lat": 32.9882
          }
        },
        {
          "name": "双湖县",
          "count": 5,
          "density": 0.0002,
          "area": 25244.06,
          "bounds": {
            "min_lng": 87.7583,
            "max_lng": 89.8643,
            "min_lat": 32.1454,
            "max_lat": 33.2974
          }
        }
      ],
      "blind_spots": [],
      "center": {
        "lat": 31.62,
        "lng": 91.7239
      },
      "area_km2": 281211.75,
      "density_per_km2": 0.0004,
      "std_distance_km": 218.98,
      "std_ellipse": {
        "center": {
          "lat": 31.62,
          "lng": 91.7239
        },
        "angle_deg": 0.14,
        "x_std_km": 298.24,
        "y_std_km": 85.11,
        "area_km2": 79748.39
      },
      "avg_nnd_km": 21.002,
      "kde": {
        "high_density_cells": 1,
        "low_density_cells": 327,
        "high_density_ratio": 0.2,
        "low_density_ratio": 81.8
      },
      "traffic_network_density": 0.12,
      "traffic_hub_influence": 0.03,
      "location_advantage": 0.03,
      "traffic_advantage": 0.06
    },
    {
      "province": "新疆维吾尔自治区",
      "city": "乌鲁木齐市",
      "total_points": 644,
      "districts_count": 8,
      "districts": [
        {
          "name": "米东区",
          "count": 242
        },
        {
          "name": "沙依巴克区",
          "count": 212
        },
        {
          "name": "水磨沟区",
          "count": 84
        },
        {
          "name": "新市区",
          "count": 30
        },
        {
          "name": "头屯河区",
          "count": 23
        },
        {
          "name": "天山区",
          "count": 19
        },
        {
          "name": "达坂城区",
          "count": 18
        },
        {
          "name": "乌鲁木齐县",
          "count": 16
        }
      ],
      "district_densities": [
        {
          "name": "沙依巴克区",
          "count": 212,
          "density": 0.7285,
          "area": 291.01,
          "bounds": {
            "min_lng": 87.3728,
            "max_lng": 87.588,
            "min_lat": 43.6807,
            "max_lat": 43.8321
          }
        },
        {
          "name": "水磨沟区",
          "count": 84,
          "density": 0.6526,
          "area": 128.71,
          "bounds": {
            "min_lng": 87.6001,
            "max_lng": 87.7407,
            "min_lat": 43.7951,
            "max_lat": 43.8978
          }
        },
        {
          "name": "米东区",
          "count": 242,
          "density": 0.3772,
          "area": 641.57,
          "bounds": {
            "min_lng": 87.5913,
            "max_lng": 87.7981,
            "min_lat": 43.8745,
            "max_lat": 44.223
          }
        },
        {
          "name": "新市区",
          "count": 30,
          "density": 0.2588,
          "area": 115.91,
          "bounds": {
            "min_lng": 87.4593,
            "max_lng": 87.5994,
            "min_lat": 43.9375,
            "max_lat": 44.0304
          }
        },
        {
          "name": "天山区",
          "count": 19,
          "density": 0.1791,
          "area": 106.08,
          "bounds": {
            "min_lng": 87.5792,
            "max_lng": 87.6796,
            "min_lat": 43.6935,
            "max_lat": 43.8118
          }
        },
        {
          "name": "头屯河区",
          "count": 23,
          "density": 0.0807,
          "area": 284.98,
          "bounds": {
            "min_lng": 87.3344,
            "max_lng": 87.4924,
            "min_lat": 43.7906,
            "max_lat": 43.9929
          }
        },
        {
          "name": "乌鲁木齐县",
          "count": 16,
          "density": 0.0214,
          "area": 748.93,
          "bounds": {
            "min_lng": 87.1768,
            "max_lng": 87.655,
            "min_lat": 43.4444,
            "max_lat": 43.619
          }
        },
        {
          "name": "达坂城区",
          "count": 18,
          "density": 0.0036,
          "area": 5028.19,
          "bounds": {
            "min_lng": 87.5591,
            "max_lng": 88.4963,
            "min_lat": 42.9927,
            "max_lat": 43.5899
          }
        }
      ],
      "blind_spots": [
        {
          "district": "达坂城区",
          "count": 18,
          "density": 0.0036,
          "reason": "密度仅全市平均8.0%"
        }
      ],
      "center": {
        "lat": 43.8282,
        "lng": 87.5796
      },
      "area_km2": 14480.19,
      "density_per_km2": 0.0445,
      "std_distance_km": 19.86,
      "std_ellipse": {
        "center": {
          "lat": 43.8282,
          "lng": 87.5796
        },
        "angle_deg": 54.64,
        "x_std_km": 17.5,
        "y_std_km": 20.84,
        "area_km2": 1145.62
      },
      "avg_nnd_km": 0.353,
      "kde": {
        "high_density_cells": 2,
        "low_density_cells": 390,
        "high_density_ratio": 0.5,
        "low_density_ratio": 97.5
      },
      "traffic_network_density": 0.6,
      "traffic_hub_influence": 0.55,
      "location_advantage": 0.4,
      "traffic_advantage": 0.52
    },
    {
      "province": "新疆维吾尔自治区",
      "city": "哈密市",
      "total_points": 337,
      "districts_count": 3,
      "districts": [
        {
          "name": "伊州区",
          "count": 263
        },
        {
          "name": "伊吾县",
          "count": 52
        },
        {
          "name": "巴里坤哈萨克自治县",
          "count": 22
        }
      ],
      "district_densities": [
        {
          "name": "伊吾县",
          "count": 52,
          "density": 0.008,
          "area": 6484.71,
          "bounds": {
            "min_lng": 93.9223,
            "max_lng": 95.2645,
            "min_lat": 43.2245,
            "max_lat": 43.7647
          }
        },
        {
          "name": "伊州区",
          "count": 263,
          "density": 0.0063,
          "area": 41952.61,
          "bounds": {
            "min_lng": 92.6708,
            "max_lng": 96.0587,
            "min_lat": 41.7975,
            "max_lat": 43.1638
          }
        },
        {
          "name": "巴里坤哈萨克自治县",
          "count": 22,
          "density": 0.002,
          "area": 11238.35,
          "bounds": {
            "min_lng": 91.6462,
            "max_lng": 93.4284,
            "min_lat": 43.5354,
            "max_lat": 44.2418
          }
        }
      ],
      "blind_spots": [],
      "center": {
        "lat": 43.0434,
        "lng": 93.7027
      },
      "area_km2": 97449.38,
      "density_per_km2": 0.0035,
      "std_distance_km": 64.25,
      "std_ellipse": {
        "center": {
          "lat": 43.0434,
          "lng": 93.7027
        },
        "angle_deg": 20.22,
        "x_std_km": 72.22,
        "y_std_km": 51.97,
        "area_km2": 11790.98
      },
      "avg_nnd_km": 2.562,
      "kde": {
        "high_density_cells": 1,
        "low_density_cells": 397,
        "high_density_ratio": 0.2,
        "low_density_ratio": 99.2
      },
      "traffic_network_density": 0.35,
      "traffic_hub_influence": 0.25,
      "location_advantage": 0.2,
      "traffic_advantage": 0.27
    },
    {
      "province": "新疆维吾尔自治区",
      "city": "吐鲁番市",
      "total_points": 157,
      "districts_count": 3,
      "districts": [
        {
          "name": "高昌区",
          "count": 63
        },
        {
          "name": "鄯善县",
          "count": 55
        },
        {
          "name": "托克逊县",
          "count": 39
        }
      ],
      "district_densities": [
        {
          "name": "高昌区",
          "count": 63,
          "density": 0.0301,
          "area": 2089.77,
          "bounds": {
            "min_lng": 88.8586,
            "max_lng": 89.6466,
            "min_lat": 42.8634,
            "max_lat": 43.1566
          }
        },
        {
          "name": "鄯善县",
          "count": 55,
          "density": 0.0158,
          "area": 3482.81,
          "bounds": {
            "min_lng": 89.6037,
            "max_lng": 90.5442,
            "min_lat": 42.6882,
            "max_lat": 43.0972
          }
        },
        {
          "name": "托克逊县",
          "count": 39,
          "density": 0.0042,
          "area": 9377.73,
          "bounds": {
            "min_lng": 87.6426,
            "max_lng": 88.6797,
            "min_lat": 42.2415,
            "max_lat": 43.2386
          }
        }
      ],
      "blind_spots": [],
      "center": {
        "lat": 42.9208,
        "lng": 89.3525
      },
      "area_km2": 26194.86,
      "density_per_km2": 0.006,
      "std_distance_km": 62.32,
      "std_ellipse": {
        "center": {
          "lat": 42.9208,
          "lng": 89.3525
        },
        "angle_deg": 1.77,
        "x_std_km": 85.38,
        "y_std_km": 22.19,
        "area_km2": 5951.86
      },
      "avg_nnd_km": 1.057,
      "kde": {
        "high_density_cells": 1,
        "low_density_cells": 387,
        "high_density_ratio": 0.2,
        "low_density_ratio": 96.8
      },
      "traffic_network_density": 0.3,
      "traffic_hub_influence": 0.2,
      "location_advantage": 0.15,
      "traffic_advantage": 0.22
    },
    {
      "province": "新疆维吾尔自治区",
      "city": "克拉玛依市",
      "total_points": 147,
      "districts_count": 4,
      "districts": [
        {
          "name": "克拉玛依区",
          "count": 104
        },
        {
          "name": "白碱滩区",
          "count": 22
        },
        {
          "name": "独山子区",
          "count": 16
        },
        {
          "name": "乌尔禾区",
          "count": 5
        }
      ],
      "district_densities": [
        {
          "name": "白碱滩区",
          "count": 22,
          "density": 0.1079,
          "area": 203.98,
          "bounds": {
            "min_lng": 84.9865,
            "max_lng": 85.1624,
            "min_lat": 45.563,
            "max_lat": 45.6971
          }
        },
        {
          "name": "独山子区",
          "count": 16,
          "density": 0.0685,
          "area": 233.63,
          "bounds": {
            "min_lng": 84.8023,
            "max_lng": 84.9211,
            "min_lat": 44.1672,
            "max_lat": 44.3895
          }
        },
        {
          "name": "克拉玛依区",
          "count": 104,
          "density": 0.0609,
          "area": 1708.13,
          "bounds": {
            "min_lng": 84.7981,
            "max_lng": 85.0552,
            "min_lat": 44.8624,
            "max_lat": 45.6294
          }
        },
        {
          "name": "乌尔禾区",
          "count": 5,
          "density": 0.0109,
          "area": 457.46,
          "bounds": {
            "min_lng": 85.4135,
            "max_lng": 85.7022,
            "min_lat": 45.9117,
            "max_lat": 46.0963
          }
        }
      ],
      "blind_spots": [],
      "center": {
        "lat": 45.4277,
        "lng": 84.9452
      },
      "area_km2": 15134.9,
      "density_per_km2": 0.0097,
      "std_distance_km": 48.98,
      "std_ellipse": {
        "center": {
          "lat": 45.4277,
          "lng": 84.9452
        },
        "angle_deg": 81.31,
        "x_std_km": 47.61,
        "y_std_km": 22.79,
        "area_km2": 3408.6
      },
      "avg_nnd_km": 0.773,
      "kde": {
        "high_density_cells": 2,
        "low_density_cells": 390,
        "high_density_ratio": 0.5,
        "low_density_ratio": 97.5
      },
      "traffic_network_density": 0.4,
      "traffic_hub_influence": 0.2,
      "location_advantage": 0.18,
      "traffic_advantage": 0.26
    },
    {
      "province": "宁夏回族自治区",
      "city": "固原市",
      "total_points": 381,
      "districts_count": 5,
      "districts": [
        {
          "name": "原州区",
          "count": 211
        },
        {
          "name": "西吉县",
          "count": 71
        },
        {
          "name": "彭阳县",
          "count": 44
        },
        {
          "name": "隆德县",
          "count": 32
        },
        {
          "name": "泾源县",
          "count": 23
        }
      ],
      "district_densities": [
        {
          "name": "原州区",
          "count": 211,
          "density": 0.113,
          "area": 1867.35,
          "bounds": {
            "min_lng": 106.0682,
            "max_lng": 106.4382,
            "min_lat": 35.8034,
            "max_lat": 36.308
          }
        },
        {
          "name": "泾源县",
          "count": 23,
          "density": 0.0456,
          "area": 504.74,
          "bounds": {
            "min_lng": 106.2719,
            "max_lng": 106.4267,
            "min_lat": 35.4089,
            "max_lat": 35.733
          }
        },
        {
          "name": "隆德县",
          "count": 32,
          "density": 0.0353,
          "area": 906.41,
          "bounds": {
            "min_lng": 105.8656,
            "max_lng": 106.1639,
            "min_lat": 35.4498,
            "max_lat": 35.7521
          }
        },
        {
          "name": "西吉县",
          "count": 71,
          "density": 0.0294,
          "area": 2417.19,
          "bounds": {
            "min_lng": 105.5094,
            "max_lng": 106.0087,
            "min_lat": 35.6858,
            "max_lat": 36.1691
          }
        },
        {
          "name": "彭阳县",
          "count": 44,
          "density": 0.0248,
          "area": 1772.07,
          "bounds": {
            "min_lng": 106.4626,
            "max_lng": 106.8257,
            "min_lat": 35.77,
            "max_lat": 36.2574
          }
        }
      ],
      "blind_spots": [],
      "center": {
        "lat": 35.9293,
        "lng": 106.1896
      },
      "area_km2": 11850.19,
      "density_per_km2": 0.0322,
      "std_distance_km": 30.35,
      "std_ellipse": {
        "center": {
          "lat": 35.9293,
          "lng": 106.1896
        },
        "angle_deg": 4.4,
        "x_std_km": 31.87,
        "y_std_km": 28.8,
        "area_km2": 2883.14
      },
      "avg_nnd_km": 0.883,
      "kde": {
        "high_density_cells": 1,
        "low_density_cells": 391,
        "high_density_ratio": 0.2,
        "low_density_ratio": 97.8
      },
      "traffic_network_density": 0.25,
      "traffic_hub_influence": 0.1,
      "location_advantage": 0.06,
      "traffic_advantage": 0.14
    },
    {
      "province": "宁夏回族自治区",
      "city": "银川市",
      "total_points": 390,
      "districts_count": 4,
      "districts": [
        {
          "name": "灵武市",
          "count": 192
        },
        {
          "name": "金凤区",
          "count": 166
        },
        {
          "name": "西夏区",
          "count": 28
        },
        {
          "name": "永宁县",
          "count": 4
        }
      ],
      "district_densities": [
        {
          "name": "西夏区",
          "count": 28,
          "density": 2.5987,
          "area": 10.77,
          "bounds": {
            "min_lng": 106.1327,
            "max_lng": 106.1682,
            "min_lat": 38.4515,
            "max_lat": 38.4829
          }
        },
        {
          "name": "金凤区",
          "count": 166,
          "density": 2.2027,
          "area": 75.36,
          "bounds": {
            "min_lng": 106.1576,
            "max_lng": 106.2538,
            "min_lat": 38.4051,
            "max_lat": 38.4861
          }
        },
        {
          "name": "永宁县",
          "count": 4,
          "density": 1.7054,
          "area": 2.35,
          "bounds": {
            "min_lng": 106.2143,
            "max_lng": 106.2356,
            "min_lat": 38.3896,
            "max_lat": 38.401
          }
        },
        {
          "name": "灵武市",
          "count": 192,
          "density": 0.0891,
          "area": 2154.49,
          "bounds": {
            "min_lng": 106.2657,
            "max_lng": 106.7908,
            "min_lat": 37.794,
            "max_lat": 38.2157
          }
        }
      ],
      "blind_spots": [],
      "center": {
        "lat": 38.2861,
        "lng": 106.3095
      },
      "area_km2": 4420.98,
      "density_per_km2": 0.0882,
      "std_distance_km": 23.89,
      "std_ellipse": {
        "center": {
          "lat": 38.2861,
          "lng": 106.3095
        },
        "angle_deg": -55.35,
        "x_std_km": 26.57,
        "y_std_km": 13.77,
        "area_km2": 1149.48
      },
      "avg_nnd_km": 0.334,
      "kde": {
        "high_density_cells": 3,
        "low_density_cells": 388,
        "high_density_ratio": 0.8,
        "low_density_ratio": 97.0
      },
      "traffic_network_density": 0.55,
      "traffic_hub_influence": 0.45,
      "location_advantage": 0.35,
      "traffic_advantage": 0.45
    },
    {
      "province": "宁夏回族自治区",
      "city": "吴忠市",
      "total_points": 416,
      "districts_count": 5,
      "districts": [
        {
          "name": "同心县",
          "count": 98
        },
        {
          "name": "利通区",
          "count": 92
        },
        {
          "name": "青铜峡市",
          "count": 87
        },
        {
          "name": "盐池县",
          "count": 84
        },
        {
          "name": "红寺堡区",
          "count": 55
        }
      ],
      "district_densities": [
        {
          "name": "青铜峡市",
          "count": 87,
          "density": 0.2936,
          "area": 296.28,
          "bounds": {
            "min_lng": 105.9339,
            "max_lng": 106.119,
            "min_lat": 37.8691,
            "max_lat": 38.0334
          }
        },
        {
          "name": "利通区",
          "count": 92,
          "density": 0.0728,
          "area": 1263.76,
          "bounds": {
            "min_lng": 106.1114,
            "max_lng": 106.4978,
            "min_lat": 37.6659,
            "max_lat": 38.0014
          }
        },
        {
          "name": "红寺堡区",
          "count": 55,
          "density": 0.0665,
          "area": 827.54,
          "bounds": {
            "min_lng": 105.8983,
            "max_lng": 106.5918,
            "min_lat": 37.3569,
            "max_lat": 37.4784
          }
        },
        {
          "name": "同心县",
          "count": 98,
          "density": 0.0234,
          "area": 4191.02,
          "bounds": {
            "min_lng": 105.7633,
            "max_lng": 106.4847,
            "min_lat": 36.706,
            "max_lat": 37.2945
          }
        },
        {
          "name": "盐池县",
          "count": 84,
          "density": 0.0121,
          "area": 6940.38,
          "bounds": {
            "min_lng": 106.6678,
            "max_lng": 107.417,
            "min_lat": 37.1757,
            "max_lat": 38.1228
          }
        }
      ],
      "blind_spots": [],
      "center": {
        "lat": 37.6196,
        "lng": 106.3249
      },
      "area_km2": 22944.58,
      "density_per_km2": 0.0181,
      "std_distance_km": 61.47,
      "std_ellipse": {
        "center": {
          "lat": 37.6196,
          "lng": 106.3249
        },
        "angle_deg": 23.58,
        "x_std_km": 62.53,
        "y_std_km": 59.18,
        "area_km2": 11626.44
      },
      "avg_nnd_km": 0.607,
      "kde": {
        "high_density_cells": 5,
        "low_density_cells": 384,
        "high_density_ratio": 1.2,
        "low_density_ratio": 96.0
      },
      "traffic_network_density": 0.3,
      "traffic_hub_influence": 0.12,
      "location_advantage": 0.08,
      "traffic_advantage": 0.17
    },
    {
      "province": "宁夏回族自治区",
      "city": "中卫市",
      "total_points": 400,
      "districts_count": 3,
      "districts": [
        {
          "name": "沙坡头区",
          "count": 180
        },
        {
          "name": "中宁县",
          "count": 117
        },
        {
          "name": "海原县",
          "count": 103
        }
      ],
      "district_densities": [
        {
          "name": "沙坡头区",
          "count": 180,
          "density": 0.0541,
          "area": 3327.37,
          "bounds": {
            "min_lng": 104.996,
            "max_lng": 105.4865,
            "min_lat": 36.9391,
            "max_lat": 37.6299
          }
        },
        {
          "name": "中宁县",
          "count": 117,
          "density": 0.0402,
          "area": 2907.93,
          "bounds": {
            "min_lng": 105.4956,
            "max_lng": 105.9344,
            "min_lat": 36.9528,
            "max_lat": 37.6279
          }
        },
        {
          "name": "海原县",
          "count": 103,
          "density": 0.0154,
          "area": 6698.85,
          "bounds": {
            "min_lng": 105.2837,
            "max_lng": 106.3415,
            "min_lat": 36.2308,
            "max_lat": 36.8682
          }
        }
      ],
      "blind_spots": [],
      "center": {
        "lat": 37.2064,
        "lng": 105.5245
      },
      "area_km2": 18538.57,
      "density_per_km2": 0.0216,
      "std_distance_km": 54.77,
      "std_ellipse": {
        "center": {
          "lat": 37.2064,
          "lng": 105.5245
        },
        "angle_deg": -60.07,
        "x_std_km": 59.98,
        "y_std_km": 34.32,
        "area_km2": 6466.29
      },
      "avg_nnd_km": 0.631,
      "kde": {
        "high_density_cells": 1,
        "low_density_cells": 391,
        "high_density_ratio": 0.2,
        "low_density_ratio": 97.8
      },
      "traffic_network_density": 0.28,
      "traffic_hub_influence": 0.12,
      "location_advantage": 0.08,
      "traffic_advantage": 0.16
    },
    {
      "province": "宁夏回族自治区",
      "city": "石嘴山市",
      "total_points": 373,
      "districts_count": 3,
      "districts": [
        {
          "name": "大武口区",
          "count": 135
        },
        {
          "name": "平罗县",
          "count": 131
        },
        {
          "name": "惠农区",
          "count": 107
        }
      ],
      "district_densities": [
        {
          "name": "大武口区",
          "count": 135,
          "density": 0.2316,
          "area": 582.99,
          "bounds": {
            "min_lng": 106.14,
            "max_lng": 106.4481,
            "min_lat": 38.8765,
            "max_lat": 39.0735
          }
        },
        {
          "name": "惠农区",
          "count": 107,
          "density": 0.1192,
          "area": 897.78,
          "bounds": {
            "min_lng": 106.5028,
            "max_lng": 106.8007,
            "min_lat": 38.9958,
            "max_lat": 39.3103
          }
        },
        {
          "name": "平罗县",
          "count": 131,
          "density": 0.0582,
          "area": 2249.26,
          "bounds": {
            "min_lng": 106.2415,
            "max_lng": 106.9216,
            "min_lat": 38.7177,
            "max_lat": 39.0615
          }
        }
      ],
      "blind_spots": [],
      "center": {
        "lat": 39.0283,
        "lng": 106.5411
      },
      "area_km2": 4449.05,
      "density_per_km2": 0.0838,
      "std_distance_km": 20.47,
      "std_ellipse": {
        "center": {
          "lat": 39.0283,
          "lng": 106.5411
        },
        "angle_deg": 33.19,
        "x_std_km": 23.68,
        "y_std_km": 13.88,
        "area_km2": 1032.24
      },
      "avg_nnd_km": 0.493,
      "kde": {
        "high_density_cells": 5,
        "low_density_cells": 383,
        "high_density_ratio": 1.2,
        "low_density_ratio": 95.8
      },
      "traffic_network_density": 0.35,
      "traffic_hub_influence": 0.15,
      "location_advantage": 0.1,
      "traffic_advantage": 0.2
    },
    {
      "province": "上海市",
      "city": "上海市",
      "total_points": 16410,
      "districts_count": 16,
      "districts": [
        {
          "name": "浦东新区",
          "count": 3763
        },
        {
          "name": "嘉定区",
          "count": 2219
        },
        {
          "name": "闵行区",
          "count": 1814
        },
        {
          "name": "宝山区",
          "count": 1690
        },
        {
          "name": "松江区",
          "count": 1395
        },
        {
          "name": "青浦区",
          "count": 959
        },
        {
          "name": "奉贤区",
          "count": 833
        },
        {
          "name": "普陀区",
          "count": 546
        },
        {
          "name": "杨浦区",
          "count": 544
        },
        {
          "name": "金山区",
          "count": 513
        },
        {
          "name": "静安区",
          "count": 467
        },
        {
          "name": "徐汇区",
          "count": 436
        },
        {
          "name": "虹口区",
          "count": 424
        },
        {
          "name": "长宁区",
          "count": 315
        },
        {
          "name": "崇明区",
          "count": 249
        },
        {
          "name": "黄浦区",
          "count": 243
        }
      ],
      "district_densities": [
        {
          "name": "虹口区",
          "count": 424,
          "density": 10.5087,
          "area": 40.35,
          "bounds": {
            "min_lng": 121.4626,
            "max_lng": 121.5158,
            "min_lat": 31.2436,
            "max_lat": 31.3154
          }
        },
        {
          "name": "黄浦区",
          "count": 243,
          "density": 9.7431,
          "area": 24.94,
          "bounds": {
            "min_lng": 121.4592,
            "max_lng": 121.5061,
            "min_lat": 31.1921,
            "max_lat": 31.2424
          }
        },
        {
          "name": "静安区",
          "count": 467,
          "density": 7.2965,
          "area": 64.0,
          "bounds": {
            "min_lng": 121.4236,
            "max_lng": 121.4816,
            "min_lat": 31.2165,
            "max_lat": 31.3209
          }
        },
        {
          "name": "杨浦区",
          "count": 544,
          "density": 7.1367,
          "area": 76.23,
          "bounds": {
            "min_lng": 121.4858,
            "max_lng": 121.5625,
            "min_lat": 31.2497,
            "max_lat": 31.3437
          }
        },
        {
          "name": "长宁区",
          "count": 315,
          "density": 6.6605,
          "area": 47.29,
          "bounds": {
            "min_lng": 121.3452,
            "max_lng": 121.4343,
            "min_lat": 31.1812,
            "max_lat": 31.2314
          }
        },
        {
          "name": "普陀区",
          "count": 546,
          "density": 5.2757,
          "area": 103.49,
          "bounds": {
            "min_lng": 121.3268,
            "max_lng": 121.449,
            "min_lat": 31.2211,
            "max_lat": 31.3012
          }
        },
        {
          "name": "徐汇区",
          "count": 436,
          "density": 4.5879,
          "area": 95.03,
          "bounds": {
            "min_lng": 121.392,
            "max_lng": 121.4705,
            "min_lat": 31.1015,
            "max_lat": 31.2158
          }
        },
        {
          "name": "宝山区",
          "count": 1690,
          "density": 3.3407,
          "area": 505.88,
          "bounds": {
            "min_lng": 121.3063,
            "max_lng": 121.5162,
            "min_lat": 31.2658,
            "max_lat": 31.4942
          }
        },
        {
          "name": "嘉定区",
          "count": 2219,
          "density": 3.1554,
          "area": 703.24,
          "bounds": {
            "min_lng": 121.1161,
            "max_lng": 121.3796,
            "min_lat": 31.2315,
            "max_lat": 31.4841
          }
        },
        {
          "name": "闵行区",
          "count": 1814,
          "density": 1.8749,
          "area": 967.53,
          "bounds": {
            "min_lng": 121.2434,
            "max_lng": 121.5717,
            "min_lat": 30.979,
            "max_lat": 31.2573
          }
        },
        {
          "name": "松江区",
          "count": 1395,
          "density": 1.7582,
          "area": 793.41,
          "bounds": {
            "min_lng": 121.0527,
            "max_lng": 121.3709,
            "min_lat": 30.9197,
            "max_lat": 31.1552
          }
        },
        {
          "name": "浦东新区",
          "count": 3763,
          "density": 1.4751,
          "area": 2550.99,
          "bounds": {
            "min_lng": 121.4721,
            "max_lng": 121.9242,
            "min_lat": 30.8469,
            "max_lat": 31.3803
          }
        },
        {
          "name": "奉贤区",
          "count": 833,
          "density": 0.9754,
          "area": 854.01,
          "bounds": {
            "min_lng": 121.3777,
            "max_lng": 121.7756,
            "min_lat": 30.8032,
            "max_lat": 31.0056
          }
        },
        {
          "name": "青浦区",
          "count": 959,
          "density": 0.7199,
          "area": 1332.14,
          "bounds": {
            "min_lng": 120.9184,
            "max_lng": 121.3176,
            "min_lat": 30.9715,
            "max_lat": 31.2871
          }
        },
        {
          "name": "金山区",
          "count": 513,
          "density": 0.5193,
          "area": 987.78,
          "bounds": {
            "min_lng": 120.9958,
            "max_lng": 121.4418,
            "min_lat": 30.7032,
            "max_lat": 30.9117
          }
        },
        {
          "name": "崇明区",
          "count": 249,
          "density": 0.0689,
          "area": 3615.0,
          "bounds": {
            "min_lng": 121.2185,
            "max_lng": 121.8785,
            "min_lat": 31.3187,
            "max_lat": 31.8386
          }
        }
      ],
      "blind_spots": [
        {
          "district": "崇明区",
          "count": 249,
          "density": 0.0689,
          "reason": "密度仅全市平均5.1%"
        }
      ],
      "center": {
        "lat": 31.1939,
        "lng": 121.4343
      },
      "area_km2": 12078.9,
      "density_per_km2": 1.3586,
      "std_distance_km": 23.8,
      "std_ellipse": {
        "center": {
          "lat": 31.1939,
          "lng": 121.4343
        },
        "angle_deg": -28.54,
        "x_std_km": 23.17,
        "y_std_km": 24.27,
        "area_km2": 1766.78
      },
      "avg_nnd_km": 0.629,
      "kde": {
        "high_density_cells": 7,
        "low_density_cells": 317,
        "high_density_ratio": 1.8,
        "low_density_ratio": 79.2
      },
      "traffic_network_density": 0.95,
      "traffic_hub_influence": 0.98,
      "location_advantage": 0.95,
      "traffic_advantage": 0.96
    },
    {
      "province": "重庆市",
      "city": "重庆市",
      "total_points": 19310,
      "districts_count": 38,
      "districts": [
        {
          "name": "渝北区",
          "count": 2082
        },
        {
          "name": "九龙坡区",
          "count": 1453
        },
        {
          "name": "沙坪坝区",
          "count": 1059
        },
        {
          "name": "南岸区",
          "count": 858
        },
        {
          "name": "江北区",
          "count": 827
        },
        {
          "name": "万州区",
          "count": 801
        },
        {
          "name": "巴南区",
          "count": 787
        },
        {
          "name": "江津区",
          "count": 683
        },
        {
          "name": "开州区",
          "count": 620
        },
        {
          "name": "涪陵区",
          "count": 578
        },
        {
          "name": "永川区",
          "count": 564
        },
        {
          "name": "大足区",
          "count": 547
        },
        {
          "name": "合川区",
          "count": 524
        },
        {
          "name": "北碚区",
          "count": 519
        },
        {
          "name": "璧山区",
          "count": 517
        },
        {
          "name": "渝中区",
          "count": 464
        },
        {
          "name": "大渡口区",
          "count": 438
        },
        {
          "name": "云阳县",
          "count": 416
        },
        {
          "name": "铜梁区",
          "count": 416
        },
        {
          "name": "綦江区",
          "count": 409
        },
        {
          "name": "荣昌区",
          "count": 402
        },
        {
          "name": "长寿区",
          "count": 353
        },
        {
          "name": "潼南区",
          "count": 345
        },
        {
          "name": "梁平区",
          "count": 344
        },
        {
          "name": "垫江县",
          "count": 343
        },
        {
          "name": "奉节县",
          "count": 317
        },
        {
          "name": "南川区",
          "count": 284
        },
        {
          "name": "丰都县",
          "count": 273
        },
        {
          "name": "忠县",
          "count": 271
        },
        {
          "name": "黔江区",
          "count": 260
        },
        {
          "name": "石柱土家族自治县",
          "count": 258
        },
        {
          "name": "秀山土家族苗族自治县",
          "count": 248
        },
        {
          "name": "彭水苗族土家族自治县",
          "count": 229
        },
        {
          "name": "酉阳土家族苗族自治县",
          "count": 214
        },
        {
          "name": "巫山县",
          "count": 185
        },
        {
          "name": "武隆区",
          "count": 166
        },
        {
          "name": "巫溪县",
          "count": 150
        },
        {
          "name": "城口县",
          "count": 106
        }
      ],
      "district_densities": [
        {
          "name": "渝中区",
          "count": 464,
          "density": 11.6229,
          "area": 39.92,
          "bounds": {
            "min_lng": 106.4864,
            "max_lng": 106.5885,
            "min_lat": 29.5299,
            "max_lat": 29.5663
          }
        },
        {
          "name": "大渡口区",
          "count": 438,
          "density": 2.7547,
          "area": 159.0,
          "bounds": {
            "min_lng": 106.4205,
            "max_lng": 106.5232,
            "min_lat": 29.3537,
            "max_lat": 29.4975
          }
        },
        {
          "name": "南岸区",
          "count": 858,
          "density": 2.35,
          "area": 365.11,
          "bounds": {
            "min_lng": 106.5372,
            "max_lng": 106.7775,
            "min_lat": 29.4676,
            "max_lat": 29.6089
          }
        },
        {
          "name": "沙坪坝区",
          "count": 1059,
          "density": 2.0438,
          "area": 518.15,
          "bounds": {
            "min_lng": 106.2787,
            "max_lng": 106.4851,
            "min_lat": 29.4979,
            "max_lat": 29.7314
          }
        },
        {
          "name": "九龙坡区",
          "count": 1453,
          "density": 1.761,
          "area": 825.08,
          "bounds": {
            "min_lng": 106.2808,
            "max_lng": 106.5464,
            "min_lat": 29.2615,
            "max_lat": 29.5501
          }
        },
        {
          "name": "江北区",
          "count": 827,
          "density": 1.7388,
          "area": 475.62,
          "bounds": {
            "min_lng": 106.4568,
            "max_lng": 106.8563,
            "min_lat": 29.5555,
            "max_lat": 29.6663
          }
        },
        {
          "name": "渝北区",
          "count": 2082,
          "density": 0.8841,
          "area": 2355.03,
          "bounds": {
            "min_lng": 106.4621,
            "max_lng": 106.9397,
            "min_lat": 29.573,
            "max_lat": 30.0321
          }
        },
        {
          "name": "北碚区",
          "count": 519,
          "density": 0.4715,
          "area": 1100.82,
          "bounds": {
            "min_lng": 106.3528,
            "max_lng": 106.6562,
            "min_lat": 29.665,
            "max_lat": 30.0031
          }
        },
        {
          "name": "璧山区",
          "count": 517,
          "density": 0.3873,
          "area": 1334.96,
          "bounds": {
            "min_lng": 106.0797,
            "max_lng": 106.3162,
            "min_lat": 29.3111,
            "max_lat": 29.8358
          }
        },
        {
          "name": "荣昌区",
          "count": 402,
          "density": 0.2922,
          "area": 1375.62,
          "bounds": {
            "min_lng": 105.3198,
            "max_lng": 105.6798,
            "min_lat": 29.2796,
            "max_lat": 29.6344
          }
        },
        {
          "name": "巴南区",
          "count": 787,
          "density": 0.2595,
          "area": 3032.45,
          "bounds": {
            "min_lng": 106.4742,
            "max_lng": 106.9642,
            "min_lat": 29.1627,
            "max_lat": 29.7372
          }
        },
        {
          "name": "大足区",
          "count": 547,
          "density": 0.2469,
          "area": 2215.19,
          "bounds": {
            "min_lng": 105.5059,
            "max_lng": 106.0077,
            "min_lat": 29.4266,
            "max_lat": 29.8373
          }
        },
        {
          "name": "永川区",
          "count": 564,
          "density": 0.2367,
          "area": 2382.63,
          "bounds": {
            "min_lng": 105.6601,
            "max_lng": 106.0645,
            "min_lat": 28.9798,
            "max_lat": 29.5264
          }
        },
        {
          "name": "铜梁区",
          "count": 416,
          "density": 0.2125,
          "area": 1957.78,
          "bounds": {
            "min_lng": 105.833,
            "max_lng": 106.2103,
            "min_lat": 29.5614,
            "max_lat": 30.0452
          }
        },
        {
          "name": "垫江县",
          "count": 343,
          "density": 0.1942,
          "area": 1765.78,
          "bounds": {
            "min_lng": 107.2619,
            "max_lng": 107.6082,
            "min_lat": 29.9979,
            "max_lat": 30.4756
          }
        },
        {
          "name": "长寿区",
          "count": 353,
          "density": 0.1722,
          "area": 2049.75,
          "bounds": {
            "min_lng": 106.9012,
            "max_lng": 107.346,
            "min_lat": 29.7638,
            "max_lat": 30.1936
          }
        },